Province,City,Area,Address,Simple Address,Google Maps Info,Latitude,Longitude
Western Cape,Cape Town,Century City,"Smartsurv House, Century City, Cape Town","Century City, Cape Town, Western Cape","[{'address_components': [{'long_name': 'Century City', 'short_name': 'Century City', 'types': ['political', 'sublocality', 'sublocality_level_2']}, {'long_name': 'Cape Town', 'short_name': 'Cape Town', 'types': ['locality', 'political']}, {'long_name': 'Cape Town', 'short_name': 'Cape Town', 'types': ['administrative_area_level_2', 'political']}, {'long_name': 'Western Cape', 'short_name': 'WC', 'types': ['administrative_area_level_1', 'political']}, {'long_name': 'South Africa', 'short_name': 'ZA', 'types': ['country', 'political']}, {'long_name': '7441', 'short_name': '7441', 'types': ['postal_code']}], 'formatted_address': 'Century City, Cape Town, 7441, South Africa', 'geometry': {'bounds': {'northeast': {'lat': -33.8777961, 'lng': 18.5243721}, 'southwest': {'lat': -33.9011269, 'lng': 18.5020192}}, 'location': {'lat': -33.8898624, 'lng': 18.5066389}, 'location_type': 'APPROXIMATE', 'viewport': {'northeast': {'lat': -33.8777961, 'lng': 18.5243721}, 'southwest': {'lat': -33.9011269, 'lng': 18.5020192}}}, 'place_id': 'ChIJE1JUnAVczB0Rvqeg8hOCi7A', 'types': ['political', 'sublocality', 'sublocality_level_2']}]",-33.8898624,18.5066389
Gauteng,Johannesburg,Morningside,"173 Rivonia Road, Morningside, Sandton, South Africa, Rochester Place,  Block A Office ","Morningside, Johannesburg, Gauteng","[{'address_components': [{'long_name': 'Morningside', 'short_name': 'Morningside', 'types': ['political', 'sublocality', 'sublocality_level_1']}, {'long_name': 'Sandton', 'short_name': 'Sandton', 'types': ['locality', 'political']}, {'long_name': 'City of Johannesburg Metropolitan Municipality', 'short_name': 'City of Johannesburg Metropolitan Municipality', 'types': ['administrative_area_level_2', 'political']}, {'long_name': 'Gauteng', 'short_name': 'GP', 'types': ['administrative_area_level_1', 'political']}, {'long_name': 'South Africa', 'short_name': 'ZA', 'types': ['country', 'political']}, {'long_name': '2057', 'short_name': '2057', 'types': ['postal_code']}], 'formatted_address': 'Morningside, Sandton, 2057, South Africa', 'geometry': {'bounds': {'northeast': {'lat': -26.060215, 'lng': 28.074492}, 'southwest': {'lat': -26.1009861, 'lng': 28.043945}}, 'location': {'lat': -26.0809318, 'lng': 28.0620624}, 'location_type': 'APPROXIMATE', 'viewport': {'northeast': {'lat': -26.060215, 'lng': 28.074492}, 'southwest': {'lat': -26.1009861, 'lng': 28.043945}}}, 'place_id': 'ChIJ0zoI9RtzlR4Rb4gZ6fgO5KQ', 'types': ['political', 'sublocality', 'sublocality_level_1']}]",-26.0809318,28.0620624
Gauteng,Johannesburg,Alberton,"60 Clinton Road, Alberton","Alberton, Johannesburg, Gauteng","[{'address_components': [{'long_name': 'Alberton', 'short_name': 'Alberton', 'types': ['locality', 'political']}, {'long_name': 'East Rand', 'short_name': 'East Rand', 'types': ['administrative_area_level_2', 'political']}, {'long_name': 'Gauteng', 'short_name': 'GP', 'types': ['administrative_area_level_1', 'political']}, {'long_name': 'South Africa', 'short_name': 'ZA', 'types': ['country', 'political']}], 'formatted_address': 'Alberton, South Africa', 'geometry': {'bounds': {'northeast': {'lat': -26.2457789, 'lng': 28.1501539}, 'southwest': {'lat': -26.408098, 'lng': 28.06561}}, 'location': {'lat': -26.3223942, 'lng': 28.1239717}, 'location_type': 'APPROXIMATE', 'viewport': {'northeast': {'lat': -26.2457789, 'lng': 28.1501539}, 'southwest': {'lat': -26.408098, 'lng': 28.06561}}}, 'place_id': 'ChIJgyDHO9UElR4RUjKlj_3JUV4', 'types': ['locality', 'political']}]",-26.3223942,28.1239717
Gauteng,Johannesburg,Richmond,"Block F , Cnr Napier and Menton rds, Richmond , Johannesburg","Richmond, Johannesburg, Gauteng","[{'address_components': [{'long_name': 'Richmond', 'short_name': 'Richmond', 'types': ['political', 'sublocality', 'sublocality_level_1']}, {'long_name': 'Johannesburg', 'short_name': 'Johannesburg', 'types': ['locality', 'political']}, {'long_name': 'City of Johannesburg Metropolitan Municipality', 'short_name': 'City of Johannesburg Metropolitan Municipality', 'types': ['administrative_area_level_2', 'political']}, {'long_name': 'Gauteng', 'short_name': 'GP', 'types': ['administrative_area_level_1', 'political']}, {'long_name': 'South Africa', 'short_name': 'ZA', 'types': ['country', 'political']}, {'long_name': '2092', 'short_name': '2092', 'types': ['postal_code']}], 'formatted_address': 'Richmond, Johannesburg, 2092, South Africa', 'geometry': {'bounds': {'northeast': {'lat': -26.1784978, 'lng': 28.0194908}, 'southwest': {'lat': -26.1839408, 'lng': 28.0118631}}, 'location': {'lat': -26.1809948, 'lng': 28.0149492}, 'location_type': 'APPROXIMATE', 'viewport': {'northeast': {'lat': -26.1784978, 'lng': 28.0194908}, 'southwest': {'lat': -26.1839408, 'lng': 28.0118631}}}, 'place_id': 'ChIJcb-N-ooLlR4RUz5zhtKTKyM', 'types': ['political', 'sublocality', 'sublocality_level_1']}]",-26.1809948,28.0149492
Gauteng,Johannesburg,Vereeniging,"46 Rhodes Ave, Vereeniging, 1939","Vereeniging, Johannesburg, Gauteng","[{'address_components': [{'long_name': 'Vereeniging', 'short_name': 'Vereeniging', 'types': ['locality', 'political']}, {'long_name': 'Sedibeng', 'short_name': 'Sedibeng', 'types': ['administrative_area_level_2', 'political']}, {'long_name': 'Gauteng', 'short_name': 'GP', 'types': ['administrative_area_level_1', 'political']}, {'long_name': 'South Africa', 'short_name': 'ZA', 'types': ['country', 'political']}], 'formatted_address': 'Vereeniging, South Africa', 'geometry': {'bounds': {'northeast': {'lat': -26.49045, 'lng': 28.02492}, 'southwest': {'lat': -26.725444, 'lng': 27.8276979}}, 'location': {'lat': -26.5969312, 'lng': 27.9014654}, 'location_type': 'APPROXIMATE', 'viewport': {'northeast': {'lat': -26.49045, 'lng': 28.02492}, 'southwest': {'lat': -26.725444, 'lng': 27.8276979}}}, 'place_id': 'ChIJZa1zgYH3lB4RWERzITTQiQc', 'types': ['locality', 'political']}]",-26.5969312,27.9014654
Gauteng,Johannesburg,Kempton Park,"Kempton square shopping centre, shop 61","Kempton Park, Johannesburg, Gauteng","[{'address_components': [{'long_name': 'Johannesburg', 'short_name': 'Johannesburg', 'types': ['locality', 'political']}, {'long_name': 'City of Johannesburg Metropolitan Municipality', 'short_name': 'City of Johannesburg Metropolitan Municipality', 'types': ['administrative_area_level_2', 'political']}, {'long_name': 'Gauteng', 'short_name': 'GP', 'types': ['administrative_area_level_1', 'political']}, {'long_name': 'South Africa', 'short_name': 'ZA', 'types': ['country', 'political']}], 'formatted_address': 'Johannesburg, South Africa', 'geometry': {'bounds': {'northeast': {'lat': -26.1041199, 'lng': 28.1376001}, 'southwest': {'lat': -26.2389231, 'lng': 27.942449}}, 'location': {'lat': -26.2041028, 'lng': 28.0473051}, 'location_type': 'APPROXIMATE', 'viewport': {'northeast': {'lat': -26.1041199, 'lng': 28.1376001}, 'southwest': {'lat': -26.2389231, 'lng': 27.942449}}}, 'place_id': 'ChIJUWpA8GgMlR4RQUDTsdnJiiM', 'types': ['locality', 'political']}]",-26.2041028,28.0473051
Gauteng,Pretoria,Pencardia,"Pencardia 1 Building, 1st Floor, 509 Pretorius St, Arcadia, Pretoria","Pencardia, Pretoria, Gauteng","[{'address_components': [{'long_name': '502', 'short_name': '502', 'types': ['street_number']}, {'long_name': 'Pretorius Street', 'short_name': 'Pretorius St', 'types': ['route']}, {'long_name': 'Arcadia', 'short_name': 'Arcadia', 'types': ['political', 'sublocality', 'sublocality_level_1']}, {'long_name': 'Pretoria', 'short_name': 'Pretoria', 'types': ['locality', 'political']}, {'long_name': 'City of Tshwane Metropolitan Municipality', 'short_name': 'City of Tshwane Metropolitan Municipality', 'types': ['administrative_area_level_2', 'political']}, {'long_name': 'Gauteng', 'short_name': 'GP', 'types': ['administrative_area_level_1', 'political']}, {'long_name': 'South Africa', 'short_name': 'ZA', 'types': ['country', 'political']}, {'long_name': '0002', 'short_name': '0002', 'types': ['postal_code']}], 'formatted_address': '502 Pretorius St, Arcadia, Pretoria, 0002, South Africa', 'geometry': {'location': {'lat': -25.7471259, 'lng': 28.205076}, 'location_type': 'ROOFTOP', 'viewport': {'northeast': {'lat': -25.7457769197085, 'lng': 28.2064249802915}, 'southwest': {'lat': -25.7484748802915, 'lng': 28.2037270197085}}}, 'place_id': 'ChIJ18945h1ilR4RJwScxkCwDPA', 'plus_code': {'compound_code': '7634+42 Pretoria, South Africa', 'global_code': '5G6C7634+42'}, 'types': ['establishment', 'local_government_office', 'point_of_interest']}]",-25.7471259,28.205076
Gauteng,Pretoria,Eugene Marais,"663 5th Avenue, Les Marais, Pretoria, 0084","Eugene Marais, Pretoria, Gauteng","[{'address_components': [{'long_name': 'Les Marais', 'short_name': 'Les Marais', 'types': ['political', 'sublocality', 'sublocality_level_1']}, {'long_name': 'Pretoria', 'short_name': 'Pretoria', 'types': ['locality', 'political']}, {'long_name': 'City of Tshwane Metropolitan Municipality', 'short_name': 'City of Tshwane Metropolitan Municipality', 'types': ['administrative_area_level_2', 'political']}, {'long_name': 'Gauteng', 'short_name': 'GP', 'types': ['administrative_area_level_1', 'political']}, {'long_name': 'South Africa', 'short_name': 'ZA', 'types': ['country', 'political']}, {'long_name': '0084', 'short_name': '0084', 'types': ['postal_code']}], 'formatted_address': 'Les Marais, Pretoria, 0084, South Africa', 'geometry': {'bounds': {'northeast': {'lat': -25.707081, 'lng': 28.1984459}, 'southwest': {'lat': -25.711161, 'lng': 28.1794699}}, 'location': {'lat': -25.7092609, 'lng': 28.1905226}, 'location_type': 'APPROXIMATE', 'viewport': {'northeast': {'lat': -25.707081, 'lng': 28.1984459}, 'southwest': {'lat': -25.711161, 'lng': 28.1794699}}}, 'place_id': 'ChIJN8VFyMbYvx4RF59q417W81A', 'types': ['political', 'sublocality', 'sublocality_level_1']}]",-25.7092609,28.1905226
Gauteng,Pretoria,Woodhill,"Parkview Shopping Centre, Garsfontein Drive","Woodhill, Pretoria, Gauteng","[{'address_components': [{'long_name': 'Woodhill Drive', 'short_name': 'Woodhill Dr', 'types': ['route']}, {'long_name': 'Pretoria', 'short_name': 'Pretoria', 'types': ['locality', 'political']}, {'long_name': 'City of Tshwane Metropolitan Municipality', 'short_name': 'City of Tshwane Metropolitan Municipality', 'types': ['administrative_area_level_2', 'political']}, {'long_name': 'Gauteng', 'short_name': 'GP', 'types': ['administrative_area_level_1', 'political']}, {'long_name': 'South Africa', 'short_name': 'ZA', 'types': ['country', 'political']}], 'formatted_address': 'Woodhill Dr, Pretoria, South Africa', 'geometry': {'bounds': {'northeast': {'lat': -25.8093938, 'lng': 28.3228165}, 'southwest': {'lat': -25.82269, 'lng': 28.3052807}}, 'location': {'lat': -25.8174878, 'lng': 28.3184398}, 'location_type': 'GEOMETRIC_CENTER', 'viewport': {'northeast': {'lat': -25.8093938, 'lng': 28.3228165}, 'southwest': {'lat': -25.82269, 'lng': 28.3052807}}}, 'place_id': 'ChIJ6V6yKe1dlR4RfwRFMh5gKbI', 'types': ['route']}]",-25.8174878,28.3184398
Gauteng,Pretoria,Faerie Glen,"Life Faerie Glen Medical Centre, 398 Jacqueline Drive, Garsfontein","Faerie Glen, Pretoria, Gauteng","[{'address_components': [{'long_name': 'Faerie Glen', 'short_name': 'Faerie Glen', 'types': ['political', 'sublocality', 'sublocality_level_1']}, {'long_name': 'Pretoria', 'short_name': 'Pretoria', 'types': ['locality', 'political']}, {'long_name': 'City of Tshwane Metropolitan Municipality', 'short_name': 'City of Tshwane Metropolitan Municipality', 'types': ['administrative_area_level_2', 'political']}, {'long_name': 'Gauteng', 'short_name': 'GP', 'types': ['administrative_area_level_1', 'political']}, {'long_name': 'South Africa', 'short_name': 'ZA', 'types': ['country', 'political']}, {'long_name': '0043', 'short_name': '0043', 'types': ['postal_code']}], 'formatted_address': 'Faerie Glen, Pretoria, 0043, South Africa', 'geometry': {'bounds': {'northeast': {'lat': -25.770758, 'lng': 28.3381299}, 'southwest': {'lat': -25.8024, 'lng': 28.2856102}}, 'location': {'lat': -25.7857426, 'lng': 28.3154981}, 'location_type': 'APPROXIMATE', 'viewport': {'northeast': {'lat': -25.770758, 'lng': 28.3381299}, 'southwest': {'lat': -25.8024, 'lng': 28.2856102}}}, 'place_id': 'ChIJSVLkiJRdlR4RaPKKQn9-qZg', 'types': ['political', 'sublocality', 'sublocality_level_1']}]",-25.7857426,28.3154981
Gauteng,Pretoria,Centurion,"58 Henri Road, Eldoraigne, Centurion","Centurion, Pretoria, Gauteng","[{'address_components': [{'long_name': 'Centurion', 'short_name': 'Centurion', 'types': ['locality', 'political']}, {'long_name': 'City of Tshwane Metropolitan Municipality', 'short_name': 'City of Tshwane Metropolitan Municipality', 'types': ['administrative_area_level_2', 'political']}, {'long_name': 'Gauteng', 'short_name': 'GP', 'types': ['administrative_area_level_1', 'political']}, {'long_name': 'South Africa', 'short_name': 'ZA', 'types': ['country', 'political']}], 'formatted_address': 'Centurion, South Africa', 'geometry': {'bounds': {'northeast': {'lat': -25.7752948, 'lng': 28.26202}, 'southwest': {'lat': -25.9449101, 'lng': 27.8903501}}, 'location': {'lat': -25.864029, 'lng': 28.0888578}, 'location_type': 'APPROXIMATE', 'viewport': {'northeast': {'lat': -25.7752948, 'lng': 28.26202}, 'southwest': {'lat': -25.9449101, 'lng': 27.8903501}}}, 'place_id': 'ChIJJ0uV9Q17lR4RfyJicLptT0c', 'types': ['locality', 'political']}]",-25.864029,28.0888578
Gauteng,Johannesburg,Ruimsig,"shop 22, ruimsig, boulevard, cnr hendrick potgieter, doreen road","Ruimsig, Johannesburg, Gauteng","[{'address_components': [{'long_name': 'Ruimsig', 'short_name': 'Ruimsig', 'types': ['political', 'sublocality', 'sublocality_level_1']}, {'long_name': 'Roodepoort', 'short_name': 'Roodepoort', 'types': ['locality', 'political']}, {'long_name': 'City of Johannesburg Metropolitan Municipality', 'short_name': 'City of Johannesburg Metropolitan Municipality', 'types': ['administrative_area_level_2', 'political']}, {'long_name': 'Gauteng', 'short_name': 'GP', 'types': ['administrative_area_level_1', 'political']}, {'long_name': 'South Africa', 'short_name': 'ZA', 'types': ['country', 'political']}, {'long_name': '1724', 'short_name': '1724', 'types': ['postal_code']}], 'formatted_address': 'Ruimsig, Roodepoort, 1724, South Africa', 'geometry': {'bounds': {'northeast': {'lat': -26.0718399, 'lng': 27.878229}, 'southwest': {'lat': -26.0915549, 'lng': 27.8422499}}, 'location': {'lat': -26.0819964, 'lng': 27.8633774}, 'location_type': 'APPROXIMATE', 'viewport': {'northeast': {'lat': -26.0718399, 'lng': 27.878229}, 'southwest': {'lat': -26.0915549, 'lng': 27.8422499}}}, 'place_id': 'ChIJG3ZnqPKelR4RtltDxJRFeto', 'types': ['political', 'sublocality', 'sublocality_level_1']}]",-26.0819964,27.8633774
Gauteng,Johannesburg,Honeydew,"John Vorster & Christiaan De Wet Roads, Rooderport","Honeydew, Johannesburg, Gauteng","[{'address_components': [{'long_name': 'Honeydew', 'short_name': 'Honeydew', 'types': ['political', 'sublocality', 'sublocality_level_1']}, {'long_name': 'Roodepoort', 'short_name': 'Roodepoort', 'types': ['locality', 'political']}, {'long_name': 'City of Johannesburg Metropolitan Municipality', 'short_name': 'City of Johannesburg Metropolitan Municipality', 'types': ['administrative_area_level_2', 'political']}, {'long_name': 'Gauteng', 'short_name': 'GP', 'types': ['administrative_area_level_1', 'political']}, {'long_name': 'South Africa', 'short_name': 'ZA', 'types': ['country', 'political']}, {'long_name': '2040', 'short_name': '2040', 'types': ['postal_code']}], 'formatted_address': 'Honeydew, Roodepoort, 2040, South Africa', 'geometry': {'bounds': {'northeast': {'lat': -26.07567, 'lng': 27.930229}, 'southwest': {'lat': -26.0831719, 'lng': 27.922464}}, 'location': {'lat': -26.0791528, 'lng': 27.9256325}, 'location_type': 'APPROXIMATE', 'viewport': {'northeast': {'lat': -26.07567, 'lng': 27.930229}, 'southwest': {'lat': -26.0831719, 'lng': 27.922464}}}, 'place_id': 'ChIJ42msxYl1lR4RGEKdiv3GhDY', 'types': ['political', 'sublocality', 'sublocality_level_1']}]",-26.0791528,27.9256325
Gauteng,Johannesburg,Honeydew,"251 Beyers naude drive, Jhb, 2115","Honeydew, Johannesburg, Gauteng","[{'address_components': [{'long_name': 'Honeydew', 'short_name': 'Honeydew', 'types': ['political', 'sublocality', 'sublocality_level_1']}, {'long_name': 'Roodepoort', 'short_name': 'Roodepoort', 'types': ['locality', 'political']}, {'long_name': 'City of Johannesburg Metropolitan Municipality', 'short_name': 'City of Johannesburg Metropolitan Municipality', 'types': ['administrative_area_level_2', 'political']}, {'long_name': 'Gauteng', 'short_name': 'GP', 'types': ['administrative_area_level_1', 'political']}, {'long_name': 'South Africa', 'short_name': 'ZA', 'types': ['country', 'political']}, {'long_name': '2040', 'short_name': '2040', 'types': ['postal_code']}], 'formatted_address': 'Honeydew, Roodepoort, 2040, South Africa', 'geometry': {'bounds': {'northeast': {'lat': -26.07567, 'lng': 27.930229}, 'southwest': {'lat': -26.0831719, 'lng': 27.922464}}, 'location': {'lat': -26.0791528, 'lng': 27.9256325}, 'location_type': 'APPROXIMATE', 'viewport': {'northeast': {'lat': -26.07567, 'lng': 27.930229}, 'southwest': {'lat': -26.0831719, 'lng': 27.922464}}}, 'place_id': 'ChIJ42msxYl1lR4RGEKdiv3GhDY', 'types': ['political', 'sublocality', 'sublocality_level_1']}]",-26.0791528,27.9256325
Gauteng,Johannesburg,Northriding,"Intrercare Northlands cnr shopping centre, cnr witkoppen road and new market street, northriding","Northriding, Johannesburg, Gauteng","[{'address_components': [{'long_name': 'Northriding', 'short_name': 'Northriding', 'types': ['political', 'sublocality', 'sublocality_level_1']}, {'long_name': 'Randburg', 'short_name': 'Randburg', 'types': ['locality', 'political']}, {'long_name': 'City of Johannesburg Metropolitan Municipality', 'short_name': 'City of Johannesburg Metropolitan Municipality', 'types': ['administrative_area_level_2', 'political']}, {'long_name': 'Gauteng', 'short_name': 'GP', 'types': ['administrative_area_level_1', 'political']}, {'long_name': 'South Africa', 'short_name': 'ZA', 'types': ['country', 'political']}, {'long_name': '2162', 'short_name': '2162', 'types': ['postal_code']}], 'formatted_address': 'Northriding, Randburg, 2162, South Africa', 'geometry': {'bounds': {'northeast': {'lat': -26.039595, 'lng': 27.974116}, 'southwest': {'lat': -26.0612868, 'lng': 27.9545979}}, 'location': {'lat': -26.0523197, 'lng': 27.9615857}, 'location_type': 'APPROXIMATE', 'viewport': {'northeast': {'lat': -26.039595, 'lng': 27.974116}, 'southwest': {'lat': -26.0612868, 'lng': 27.9545979}}}, 'place_id': 'ChIJfSjl3dF1lR4R4H7zM_03Nuc', 'types': ['political', 'sublocality', 'sublocality_level_1']}]",-26.0523197,27.9615857
Gauteng,Johannesburg,Bedforview,"Leicester depot, suite no 8 Leicester Medical Mews, 7 Leicester Road, Bedford Gardens","Bedforview, Johannesburg, Gauteng","[{'address_components': [{'long_name': 'Bedfordview', 'short_name': 'Bedfordview', 'types': ['political', 'sublocality', 'sublocality_level_1']}, {'long_name': 'Germiston', 'short_name': 'Germiston', 'types': ['locality', 'political']}, {'long_name': 'East Rand', 'short_name': 'East Rand', 'types': ['administrative_area_level_2', 'political']}, {'long_name': 'Gauteng', 'short_name': 'GP', 'types': ['administrative_area_level_1', 'political']}, {'long_name': 'South Africa', 'short_name': 'ZA', 'types': ['country', 'political']}, {'long_name': '2007', 'short_name': '2007', 'types': ['postal_code']}], 'formatted_address': 'Bedfordview, Germiston, 2007, South Africa', 'geometry': {'bounds': {'northeast': {'lat': -26.1607149, 'lng': 28.1605949}, 'southwest': {'lat': -26.1967959, 'lng': 28.11274}}, 'location': {'lat': -26.1716908, 'lng': 28.1327491}, 'location_type': 'APPROXIMATE', 'viewport': {'northeast': {'lat': -26.1607149, 'lng': 28.1605949}, 'southwest': {'lat': -26.1967959, 'lng': 28.11274}}}, 'place_id': 'ChIJjyF8DyESlR4RrTWrXG5iBhI', 'types': ['political', 'sublocality', 'sublocality_level_1']}]",-26.1716908,28.1327491
Gauteng,Johannesburg,Houghton,"53 2nd Ave, Gate 2 , Houghton Estate , Hougton , Johannesburg","Houghton, Johannesburg, Gauteng","[{'address_components': [{'long_name': 'Houghton Estate', 'short_name': 'Houghton Estate', 'types': ['political', 'sublocality', 'sublocality_level_1']}, {'long_name': 'Johannesburg', 'short_name': 'Johannesburg', 'types': ['locality', 'political']}, {'long_name': 'City of Johannesburg Metropolitan Municipality', 'short_name': 'City of Johannesburg Metropolitan Municipality', 'types': ['administrative_area_level_2', 'political']}, {'long_name': 'Gauteng', 'short_name': 'GP', 'types': ['administrative_area_level_1', 'political']}, {'long_name': 'South Africa', 'short_name': 'ZA', 'types': ['country', 'political']}, {'long_name': '2198', 'short_name': '2198', 'types': ['postal_code']}], 'formatted_address': 'Houghton Estate, Johannesburg, 2198, South Africa', 'geometry': {'bounds': {'northeast': {'lat': -26.146017, 'lng': 28.0786449}, 'southwest': {'lat': -26.182023, 'lng': 28.0450119}}, 'location': {'lat': -26.1648722, 'lng': 28.0625177}, 'location_type': 'APPROXIMATE', 'viewport': {'northeast': {'lat': -26.146017, 'lng': 28.0786449}, 'southwest': {'lat': -26.182023, 'lng': 28.0450119}}}, 'place_id': 'ChIJCY03mk0MlR4RUryk31Fsy38', 'types': ['political', 'sublocality', 'sublocality_level_1']}]",-26.1648722,28.0625177
Gauteng,Johannesburg,Cheltondale,"Suite 4  Orchard Heights, Cnr Orchard and Cheltondale Rd, Cheltondale , Johannesburg","Cheltondale, Johannesburg, Gauteng","[{'address_components': [{'long_name': 'Cheltondale', 'short_name': 'Cheltondale', 'types': ['political', 'sublocality', 'sublocality_level_1']}, {'long_name': 'Johannesburg', 'short_name': 'Johannesburg', 'types': ['locality', 'political']}, {'long_name': 'City of Johannesburg Metropolitan Municipality', 'short_name': 'City of Johannesburg Metropolitan Municipality', 'types': ['administrative_area_level_2', 'political']}, {'long_name': 'Gauteng', 'short_name': 'GP', 'types': ['administrative_area_level_1', 'political']}, {'long_name': 'South Africa', 'short_name': 'ZA', 'types': ['country', 'political']}, {'long_name': '2192', 'short_name': '2192', 'types': ['postal_code']}], 'formatted_address': 'Cheltondale, Johannesburg, 2192, South Africa', 'geometry': {'bounds': {'northeast': {'lat': -26.149016, 'lng': 28.0865588}, 'southwest': {'lat': -26.1536879, 'lng': 28.0801181}}, 'location': {'lat': -26.1515931, 'lng': 28.0837364}, 'location_type': 'APPROXIMATE', 'viewport': {'northeast': {'lat': -26.149016, 'lng': 28.0865588}, 'southwest': {'lat': -26.1536879, 'lng': 28.0801181}}}, 'place_id': 'ChIJd0CztKYNlR4RPXbFsgvLltQ', 'types': ['political', 'sublocality', 'sublocality_level_1']}]",-26.1515931,28.0837364
Gauteng,Johannesburg,Berea,41 Bruce Street,"Berea, Johannesburg, Gauteng","[{'address_components': [{'long_name': 'Berea', 'short_name': 'Berea', 'types': ['political', 'sublocality', 'sublocality_level_1']}, {'long_name': 'Johannesburg', 'short_name': 'Johannesburg', 'types': ['locality', 'political']}, {'long_name': 'City of Johannesburg Metropolitan Municipality', 'short_name': 'City of Johannesburg Metropolitan Municipality', 'types': ['administrative_area_level_2', 'political']}, {'long_name': 'Gauteng', 'short_name': 'GP', 'types': ['administrative_area_level_1', 'political']}, {'long_name': 'South Africa', 'short_name': 'ZA', 'types': ['country', 'political']}, {'long_name': '2198', 'short_name': '2198', 'types': ['postal_code']}], 'formatted_address': 'Berea, Johannesburg, 2198, South Africa', 'geometry': {'bounds': {'northeast': {'lat': -26.178894, 'lng': 28.0580028}, 'southwest': {'lat': -26.193855, 'lng': 28.0491869}}, 'location': {'lat': -26.1854617, 'lng': 28.0538045}, 'location_type': 'APPROXIMATE', 'viewport': {'northeast': {'lat': -26.178894, 'lng': 28.0580028}, 'southwest': {'lat': -26.193855, 'lng': 28.0491869}}}, 'place_id': 'ChIJGWWG8C8MlR4RFFAMN81VmaM', 'types': ['political', 'sublocality', 'sublocality_level_1']}]",-26.1854617,28.0538045
Gauteng,Johannesburg,Robertsham,82 Benson St Cnr Bently St,"Robertsham, Johannesburg, Gauteng","[{'address_components': [{'long_name': 'Robertsham', 'short_name': 'Robertsham', 'types': ['political', 'sublocality', 'sublocality_level_1']}, {'long_name': 'Johannesburg South', 'short_name': 'Johannesburg South', 'types': ['locality', 'political']}, {'long_name': 'City of Johannesburg Metropolitan Municipality', 'short_name': 'City of Johannesburg Metropolitan Municipality', 'types': ['administrative_area_level_2', 'political']}, {'long_name': 'Gauteng', 'short_name': 'GP', 'types': ['administrative_area_level_1', 'political']}, {'long_name': 'South Africa', 'short_name': 'ZA', 'types': ['country', 'political']}, {'long_name': '2091', 'short_name': '2091', 'types': ['postal_code']}], 'formatted_address': 'Robertsham, Johannesburg South, 2091, South Africa', 'geometry': {'bounds': {'northeast': {'lat': -26.233664, 'lng': 28.0229}, 'southwest': {'lat': -26.2624049, 'lng': 28.006866}}, 'location': {'lat': -26.245369, 'lng': 28.0154995}, 'location_type': 'APPROXIMATE', 'viewport': {'northeast': {'lat': -26.233664, 'lng': 28.0229}, 'southwest': {'lat': -26.2624049, 'lng': 28.006866}}}, 'place_id': 'ChIJjV_FgdUIlR4RY4RpepfwEnA', 'types': ['political', 'sublocality', 'sublocality_level_1']}]",-26.245369,28.0154995
Gauteng,Johannesburg,Jeppe,195 Jeppe St 14th Floor,"Jeppe, Johannesburg, Gauteng","[{'address_components': [{'long_name': 'Rahima Moosa Street', 'short_name': 'Rahima Moosa St', 'types': ['route']}, {'long_name': 'Johannesburg', 'short_name': 'Johannesburg', 'types': ['locality', 'political']}, {'long_name': 'City of Johannesburg Metropolitan Municipality', 'short_name': 'City of Johannesburg Metropolitan Municipality', 'types': ['administrative_area_level_2', 'political']}, {'long_name': 'Gauteng', 'short_name': 'GP', 'types': ['administrative_area_level_1', 'political']}, {'long_name': 'South Africa', 'short_name': 'ZA', 'types': ['country', 'political']}, {'long_name': '2001', 'short_name': '2001', 'types': ['postal_code']}], 'formatted_address': 'Rahima Moosa St, Johannesburg, 2001, South Africa', 'geometry': {'bounds': {'northeast': {'lat': -26.198985, 'lng': 28.0537367}, 'southwest': {'lat': -26.2047809, 'lng': 28.0273914}}, 'location': {'lat': -26.2017942, 'lng': 28.04061}, 'location_type': 'GEOMETRIC_CENTER', 'viewport': {'northeast': {'lat': -26.198985, 'lng': 28.0537367}, 'southwest': {'lat': -26.2047809, 'lng': 28.0273914}}}, 'place_id': 'ChIJnSuhSqAOlR4RqCL7VXa5hn0', 'types': ['route']}]",-26.2017942,28.04061
Gauteng,Johannesburg,Germiston,"8 Parks Street, Bedfordview, Germiston","Germiston, Johannesburg, Gauteng","[{'address_components': [{'long_name': 'Germiston', 'short_name': 'Germiston', 'types': ['locality', 'political']}, {'long_name': 'East Rand', 'short_name': 'East Rand', 'types': ['administrative_area_level_2', 'political']}, {'long_name': 'Gauteng', 'short_name': 'GP', 'types': ['administrative_area_level_1', 'political']}, {'long_name': 'South Africa', 'short_name': 'ZA', 'types': ['country', 'political']}], 'formatted_address': 'Germiston, South Africa', 'geometry': {'bounds': {'northeast': {'lat': -26.137472, 'lng': 28.2396869}, 'southwest': {'lat': -26.323622, 'lng': 28.11274}}, 'location': {'lat': -26.2258734, 'lng': 28.1707794}, 'location_type': 'APPROXIMATE', 'viewport': {'northeast': {'lat': -26.137472, 'lng': 28.2396869}, 'southwest': {'lat': -26.323622, 'lng': 28.11274}}}, 'place_id': 'ChIJj9V5qZQQlR4RVpaADuV2f3w', 'types': ['locality', 'political']}]",-26.2258734,28.1707794
Gauteng,Johannesburg,Parklands,"Parklands Medical Suites, 23 Achielis Street, Pollak Park","Parklands, Johannesburg, Gauteng","[{'address_components': [{'long_name': 'Keyes Avenue', 'short_name': 'Keyes Ave', 'types': ['route']}, {'long_name': 'Rosebank', 'short_name': 'Rosebank', 'types': ['political', 'sublocality', 'sublocality_level_1']}, {'long_name': 'Johannesburg', 'short_name': 'Johannesburg', 'types': ['locality', 'political']}, {'long_name': 'City of Johannesburg Metropolitan Municipality', 'short_name': 'City of Johannesburg Metropolitan Municipality', 'types': ['administrative_area_level_2', 'political']}, {'long_name': 'Gauteng', 'short_name': 'GP', 'types': ['administrative_area_level_1', 'political']}, {'long_name': 'South Africa', 'short_name': 'ZA', 'types': ['country', 'political']}, {'long_name': '2196', 'short_name': '2196', 'types': ['postal_code']}], 'formatted_address': 'Keyes Ave, Rosebank, Johannesburg, 2196, South Africa', 'geometry': {'location': {'lat': -26.1463855, 'lng': 28.0369801}, 'location_type': 'GEOMETRIC_CENTER', 'viewport': {'northeast': {'lat': -26.14503651970849, 'lng': 28.0383290802915}, 'southwest': {'lat': -26.1477344802915, 'lng': 28.0356311197085}}}, 'place_id': 'ChIJHShl8o0MlR4RwCXZv3qGJno', 'plus_code': {'compound_code': 'V23P+CQ Johannesburg, South Africa', 'global_code': '5G5CV23P+CQ'}, 'types': ['establishment', 'finance', 'point_of_interest', 'post_office']}]",-26.1463855,28.0369801
Gauteng,Johannesburg,Brakpan,"1 Hendrik Potgieter Rd, Dalview, Brakpan, 1541, South Africa","Brakpan, Johannesburg, Gauteng","[{'address_components': [{'long_name': 'Elsburg Road', 'short_name': 'Elsburg Rd', 'types': ['route']}, {'long_name': 'Brakpan', 'short_name': 'Brakpan', 'types': ['political', 'sublocality', 'sublocality_level_1']}, {'long_name': 'Boksburg', 'short_name': 'Boksburg', 'types': ['locality', 'political']}, {'long_name': 'East Rand', 'short_name': 'East Rand', 'types': ['administrative_area_level_2', 'political']}, {'long_name': 'Gauteng', 'short_name': 'GP', 'types': ['administrative_area_level_1', 'political']}, {'long_name': 'South Africa', 'short_name': 'ZA', 'types': ['country', 'political']}, {'long_name': '1540', 'short_name': '1540', 'types': ['postal_code']}], 'formatted_address': '& Century Rd, Elsburg Rd, Brakpan, Boksburg, 1540, South Africa', 'geometry': {'location': {'lat': -26.2575229, 'lng': 28.3166577}, 'location_type': 'GEOMETRIC_CENTER', 'viewport': {'northeast': {'lat': -26.2561739197085, 'lng': 28.3180066802915}, 'southwest': {'lat': -26.2588718802915, 'lng': 28.3153087197085}}}, 'place_id': 'ChIJV2DDBI4ilR4RQJUMi_YhLBY', 'plus_code': {'compound_code': 'P8R8+XM Boksburg, South Africa', 'global_code': '5G5CP8R8+XM'}, 'types': ['casino', 'establishment', 'food', 'lodging', 'point_of_interest', 'restaurant']}]",-26.2575229,28.3166577
Gauteng,Johannesburg,Benoni,"Glynnwood Medical Centre, 129 Howard Str, Benoni","Benoni, Johannesburg, Gauteng","[{'address_components': [{'long_name': 'Johannesburg', 'short_name': 'Johannesburg', 'types': ['locality', 'political']}, {'long_name': 'City of Johannesburg Metropolitan Municipality', 'short_name': 'City of Johannesburg Metropolitan Municipality', 'types': ['administrative_area_level_2', 'political']}, {'long_name': 'Gauteng', 'short_name': 'GP', 'types': ['administrative_area_level_1', 'political']}, {'long_name': 'South Africa', 'short_name': 'ZA', 'types': ['country', 'political']}], 'formatted_address': 'Johannesburg, South Africa', 'geometry': {'bounds': {'northeast': {'lat': -26.1041199, 'lng': 28.1376001}, 'southwest': {'lat': -26.2389231, 'lng': 27.942449}}, 'location': {'lat': -26.2041028, 'lng': 28.0473051}, 'location_type': 'APPROXIMATE', 'viewport': {'northeast': {'lat': -26.1041199, 'lng': 28.1376001}, 'southwest': {'lat': -26.2389231, 'lng': 27.942449}}}, 'place_id': 'ChIJUWpA8GgMlR4RQUDTsdnJiiM', 'types': ['locality', 'political']}]",-26.2041028,28.0473051
Gauteng,Johannesburg,Boksburg,"Palm Springs Medical Centre, 42 Van Wyk Louw Drive, Parkrand, Boksburg, 1459, South Africa","Boksburg, Johannesburg, Gauteng","[{'address_components': [{'long_name': 'Johannesburg', 'short_name': 'Johannesburg', 'types': ['locality', 'political']}, {'long_name': 'City of Johannesburg Metropolitan Municipality', 'short_name': 'City of Johannesburg Metropolitan Municipality', 'types': ['administrative_area_level_2', 'political']}, {'long_name': 'Gauteng', 'short_name': 'GP', 'types': ['administrative_area_level_1', 'political']}, {'long_name': 'South Africa', 'short_name': 'ZA', 'types': ['country', 'political']}], 'formatted_address': 'Johannesburg, South Africa', 'geometry': {'bounds': {'northeast': {'lat': -26.1041199, 'lng': 28.1376001}, 'southwest': {'lat': -26.2389231, 'lng': 27.942449}}, 'location': {'lat': -26.2041028, 'lng': 28.0473051}, 'location_type': 'APPROXIMATE', 'viewport': {'northeast': {'lat': -26.1041199, 'lng': 28.1376001}, 'southwest': {'lat': -26.2389231, 'lng': 27.942449}}}, 'place_id': 'ChIJUWpA8GgMlR4RQUDTsdnJiiM', 'types': ['locality', 'political']}]",-26.2041028,28.0473051
Gauteng,Johannesburg,Edenvale,"45 Linksfield Road, Dowerglen, Lethabong (Ekurhuleni), 1609","Edenvale, Johannesburg, Gauteng","[{'address_components': [{'long_name': 'Edenvale', 'short_name': 'Edenvale', 'types': ['political', 'sublocality', 'sublocality_level_1']}, {'long_name': 'Edenvale', 'short_name': 'Edenvale', 'types': ['locality', 'political']}, {'long_name': 'East Rand', 'short_name': 'East Rand', 'types': ['administrative_area_level_2', 'political']}, {'long_name': 'Gauteng', 'short_name': 'GP', 'types': ['administrative_area_level_1', 'political']}, {'long_name': 'South Africa', 'short_name': 'ZA', 'types': ['country', 'political']}, {'long_name': '1609', 'short_name': '1609', 'types': ['postal_code']}], 'formatted_address': 'Edenvale, 1609, South Africa', 'geometry': {'bounds': {'northeast': {'lat': -26.1180299, 'lng': 28.178017}, 'southwest': {'lat': -26.1535419, 'lng': 28.1354199}}, 'location': {'lat': -26.1450825, 'lng': 28.1561533}, 'location_type': 'APPROXIMATE', 'viewport': {'northeast': {'lat': -26.1180299, 'lng': 28.178017}, 'southwest': {'lat': -26.1535419, 'lng': 28.1354199}}}, 'place_id': 'ChIJzQRIqFUSlR4RK1y2V1s0kTs', 'types': ['political', 'sublocality', 'sublocality_level_1']}]",-26.1450825,28.1561533
Gauteng,Johannesburg,Bedforview,"Parkstreet , Bedfordview, Johannesburg","Bedforview, Johannesburg, Gauteng","[{'address_components': [{'long_name': 'Bedfordview', 'short_name': 'Bedfordview', 'types': ['political', 'sublocality', 'sublocality_level_1']}, {'long_name': 'Germiston', 'short_name': 'Germiston', 'types': ['locality', 'political']}, {'long_name': 'East Rand', 'short_name': 'East Rand', 'types': ['administrative_area_level_2', 'political']}, {'long_name': 'Gauteng', 'short_name': 'GP', 'types': ['administrative_area_level_1', 'political']}, {'long_name': 'South Africa', 'short_name': 'ZA', 'types': ['country', 'political']}, {'long_name': '2007', 'short_name': '2007', 'types': ['postal_code']}], 'formatted_address': 'Bedfordview, Germiston, 2007, South Africa', 'geometry': {'bounds': {'northeast': {'lat': -26.1607149, 'lng': 28.1605949}, 'southwest': {'lat': -26.1967959, 'lng': 28.11274}}, 'location': {'lat': -26.1716908, 'lng': 28.1327491}, 'location_type': 'APPROXIMATE', 'viewport': {'northeast': {'lat': -26.1607149, 'lng': 28.1605949}, 'southwest': {'lat': -26.1967959, 'lng': 28.11274}}}, 'place_id': 'ChIJjyF8DyESlR4RrTWrXG5iBhI', 'types': ['political', 'sublocality', 'sublocality_level_1']}]",-26.1716908,28.1327491
Gauteng,Johannesburg,Krugersdorp,"1 Boshoff Street, Krugersdorp, 1739","Krugersdorp, Johannesburg, Gauteng","[{'address_components': [{'long_name': 'Johannesburg', 'short_name': 'Johannesburg', 'types': ['locality', 'political']}, {'long_name': 'City of Johannesburg Metropolitan Municipality', 'short_name': 'City of Johannesburg Metropolitan Municipality', 'types': ['administrative_area_level_2', 'political']}, {'long_name': 'Gauteng', 'short_name': 'GP', 'types': ['administrative_area_level_1', 'political']}, {'long_name': 'South Africa', 'short_name': 'ZA', 'types': ['country', 'political']}], 'formatted_address': 'Johannesburg, South Africa', 'geometry': {'bounds': {'northeast': {'lat': -26.1041199, 'lng': 28.1376001}, 'southwest': {'lat': -26.2389231, 'lng': 27.942449}}, 'location': {'lat': -26.2041028, 'lng': 28.0473051}, 'location_type': 'APPROXIMATE', 'viewport': {'northeast': {'lat': -26.1041199, 'lng': 28.1376001}, 'southwest': {'lat': -26.2389231, 'lng': 27.942449}}}, 'place_id': 'ChIJUWpA8GgMlR4RQUDTsdnJiiM', 'types': ['locality', 'political']}]",-26.2041028,28.0473051
Gauteng,Johannesburg,Heidelberg,"Life Suikerbosrand Hospital, Cnr H F Verwoerd, Heidelberg, Heidelberg","Heidelberg, Johannesburg, Gauteng","[{'address_components': [{'long_name': '06', 'short_name': '06', 'types': ['street_number']}, {'long_name': 'Jan Meyer Street', 'short_name': 'Jan Meyer St', 'types': ['route']}, {'long_name': 'Alberton', 'short_name': 'Alberton', 'types': ['political', 'sublocality', 'sublocality_level_1']}, {'long_name': 'Johannesburg', 'short_name': 'Johannesburg', 'types': ['locality', 'political']}, {'long_name': 'East Rand', 'short_name': 'East Rand', 'types': ['administrative_area_level_2', 'political']}, {'long_name': 'Gauteng', 'short_name': 'GP', 'types': ['administrative_area_level_1', 'political']}, {'long_name': 'South Africa', 'short_name': 'ZA', 'types': ['country', 'political']}, {'long_name': '1450', 'short_name': '1450', 'types': ['postal_code']}], 'formatted_address': '06 Jan Meyer St, Alberton, Johannesburg, 1450, South Africa', 'geometry': {'location': {'lat': -26.2546599, 'lng': 28.111529}, 'location_type': 'ROOFTOP', 'viewport': {'northeast': {'lat': -26.2533109197085, 'lng': 28.1128779802915}, 'southwest': {'lat': -26.2560088802915, 'lng': 28.11018001970849}}}, 'place_id': 'ChIJMzr_9-EPlR4R6Yh3P9drlgI', 'plus_code': {'compound_code': 'P4W6+4J Johannesburg, South Africa', 'global_code': '5G5CP4W6+4J'}, 'types': ['establishment', 'point_of_interest']}]",-26.2546599,28.111529
Limpopo,Lephalale,Lephalale,"Corner Joe Slovo and Drif Street, Shop L 2 Sunset Point Plaza","Lephalale, Lephalale, Limpopo","[{'address_components': [{'long_name': 'Lephalale', 'short_name': 'Lephalale', 'types': ['locality', 'political']}, {'long_name': 'Bosveld', 'short_name': 'Bosveld', 'types': ['administrative_area_level_2', 'political']}, {'long_name': 'Limpopo', 'short_name': 'LP', 'types': ['administrative_area_level_1', 'political']}, {'long_name': 'South Africa', 'short_name': 'ZA', 'types': ['country', 'political']}], 'formatted_address': 'Lephalale, South Africa', 'geometry': {'bounds': {'northeast': {'lat': -23.6175058, 'lng': 27.7617019}, 'southwest': {'lat': -23.732691, 'lng': 27.5015309}}, 'location': {'lat': -23.6664659, 'lng': 27.7448285}, 'location_type': 'APPROXIMATE', 'viewport': {'northeast': {'lat': -23.6175058, 'lng': 27.7617019}, 'southwest': {'lat': -23.732691, 'lng': 27.5015309}}}, 'place_id': 'ChIJsTEDLl6huR4R3vSbljz1Ras', 'types': ['locality', 'political']}]",-23.6664659,27.7448285
Limpopo,Thabazimbi,Thabazimbi,13th Avenue Carpe Diem Centre,"Thabazimbi, Thabazimbi, Limpopo","[{'address_components': [{'long_name': 'Thabazimbi', 'short_name': 'Thabazimbi', 'types': ['locality', 'political']}, {'long_name': 'Bosveld', 'short_name': 'Bosveld', 'types': ['administrative_area_level_2', 'political']}, {'long_name': 'Limpopo', 'short_name': 'LP', 'types': ['administrative_area_level_1', 'political']}, {'long_name': 'South Africa', 'short_name': 'ZA', 'types': ['country', 'political']}, {'long_name': '0387', 'short_name': '0387', 'types': ['postal_code']}], 'formatted_address': 'Thabazimbi, 0387, South Africa', 'geometry': {'bounds': {'northeast': {'lat': -24.557566, 'lng': 27.4351729}, 'southwest': {'lat': -24.6143809, 'lng': 27.3727908}}, 'location': {'lat': -24.5828411, 'lng': 27.4027743}, 'location_type': 'APPROXIMATE', 'viewport': {'northeast': {'lat': -24.557566, 'lng': 27.4351729}, 'southwest': {'lat': -24.6143809, 'lng': 27.3727908}}}, 'place_id': 'ChIJKdu2lYOxvh4R_rZ3ySyZ-M4', 'types': ['locality', 'political']}]",-24.5828411,27.4027743
Limpopo, Polokwane Central,Polokwane,"44A Grobler street, Polokwane Central","Polokwane,  Polokwane Central, Limpopo","[{'address_components': [{'long_name': 'Polokwane Central', 'short_name': 'Polokwane Central', 'types': ['political', 'sublocality', 'sublocality_level_1']}, {'long_name': 'Polokwane', 'short_name': 'Polokwane', 'types': ['locality', 'political']}, {'long_name': 'Central', 'short_name': 'Central', 'types': ['administrative_area_level_2', 'political']}, {'long_name': 'Limpopo', 'short_name': 'LP', 'types': ['administrative_area_level_1', 'political']}, {'long_name': 'South Africa', 'short_name': 'ZA', 'types': ['country', 'political']}, {'long_name': '0699', 'short_name': '0699', 'types': ['postal_code']}], 'formatted_address': 'Polokwane Central, Polokwane, 0699, South Africa', 'geometry': {'bounds': {'northeast': {'lat': -23.897078, 'lng': 29.4716511}, 'southwest': {'lat': -23.9209099, 'lng': 29.4419752}}, 'location': {'lat': -23.9099925, 'lng': 29.4600834}, 'location_type': 'APPROXIMATE', 'viewport': {'northeast': {'lat': -23.897078, 'lng': 29.4716511}, 'southwest': {'lat': -23.9209099, 'lng': 29.4419752}}}, 'place_id': 'ChIJabbaoynYxh4RZvbzyfDYLnM', 'types': ['political', 'sublocality', 'sublocality_level_1']}]",-23.9099925,29.4600834
Limpopo,Tzaneen,Tzaneen,"71 Wolksberg Road, Ivory Tusk Lodge","Tzaneen, Tzaneen, Limpopo","[{'address_components': [{'long_name': 'Tzaneen', 'short_name': 'Tzaneen', 'types': ['locality', 'political']}, {'long_name': 'Mopani', 'short_name': 'Mopani', 'types': ['administrative_area_level_2', 'political']}, {'long_name': 'Limpopo', 'short_name': 'LP', 'types': ['administrative_area_level_1', 'political']}, {'long_name': 'South Africa', 'short_name': 'ZA', 'types': ['country', 'political']}], 'formatted_address': 'Tzaneen, South Africa', 'geometry': {'bounds': {'northeast': {'lat': -23.73579, 'lng': 30.2185609}, 'southwest': {'lat': -23.894035, 'lng': 30.0725938}}, 'location': {'lat': -23.8319853, 'lng': 30.1358346}, 'location_type': 'APPROXIMATE', 'viewport': {'northeast': {'lat': -23.73579, 'lng': 30.2185609}, 'southwest': {'lat': -23.894035, 'lng': 30.0725938}}}, 'place_id': 'ChIJOeiHss-pxh4RYdJwF1kHelg', 'types': ['locality', 'political']}]",-23.8319853,30.1358346
Limpopo,Thohoyandou,Thohoyandou,Corner Mpehephu & Mvusuludzo,"Thohoyandou, Thohoyandou, Limpopo","[{'address_components': [{'long_name': 'Thohoyandou', 'short_name': 'Thohoyandou', 'types': ['political', 'sublocality', 'sublocality_level_1']}, {'long_name': 'Thohoyandou', 'short_name': 'Thohoyandou', 'types': ['locality', 'political']}, {'long_name': 'Far North', 'short_name': 'Far North', 'types': ['administrative_area_level_2', 'political']}, {'long_name': 'Limpopo', 'short_name': 'LP', 'types': ['administrative_area_level_1', 'political']}, {'long_name': 'South Africa', 'short_name': 'ZA', 'types': ['country', 'political']}, {'long_name': '0950', 'short_name': '0950', 'types': ['postal_code']}], 'formatted_address': 'Thohoyandou, 0950, South Africa', 'geometry': {'bounds': {'northeast': {'lat': -22.936014, 'lng': 30.498978}, 'southwest': {'lat': -23.0089401, 'lng': 30.4196879}}, 'location': {'lat': -22.9748857, 'lng': 30.4444046}, 'location_type': 'APPROXIMATE', 'viewport': {'northeast': {'lat': -22.936014, 'lng': 30.498978}, 'southwest': {'lat': -23.0089401, 'lng': 30.4196879}}}, 'place_id': 'ChIJa8mhJV7GxR4Rn1ValOxt2lo', 'types': ['political', 'sublocality', 'sublocality_level_1']}]",-22.9748857,30.4444046
Limpopo,Phalaborwa,Phalaborwa,"71 Sealene Street, Phalaborwa","Phalaborwa, Phalaborwa, Limpopo","[{'address_components': [{'long_name': 'Phalaborwa', 'short_name': 'Phalaborwa', 'types': ['locality', 'political']}, {'long_name': 'Mopani', 'short_name': 'Mopani', 'types': ['administrative_area_level_2', 'political']}, {'long_name': 'Limpopo', 'short_name': 'LP', 'types': ['administrative_area_level_1', 'political']}, {'long_name': 'South Africa', 'short_name': 'ZA', 'types': ['country', 'political']}], 'formatted_address': 'Phalaborwa, South Africa', 'geometry': {'bounds': {'northeast': {'lat': -23.8482231, 'lng': 31.2113399}, 'southwest': {'lat': -24.12942, 'lng': 30.9761598}}, 'location': {'lat': -23.9424435, 'lng': 31.14092179999999}, 'location_type': 'APPROXIMATE', 'viewport': {'northeast': {'lat': -23.8482231, 'lng': 31.2113399}, 'southwest': {'lat': -24.12942, 'lng': 30.9761598}}}, 'place_id': 'ChIJCdY1JgNuwx4Rc_q-6cnbzDo', 'types': ['locality', 'political']}]",-23.9424435,31.14092179999999
Limpopo,Mokopane,Mokopane,"97 RUITER STREET, MOKOPANE","Mokopane, Mokopane, Limpopo","[{'address_components': [{'long_name': 'Mokopane', 'short_name': 'Mokopane', 'types': ['locality', 'political']}, {'long_name': 'Bosveld', 'short_name': 'Bosveld', 'types': ['administrative_area_level_2', 'political']}, {'long_name': 'Limpopo', 'short_name': 'LP', 'types': ['administrative_area_level_1', 'political']}, {'long_name': 'South Africa', 'short_name': 'ZA', 'types': ['country', 'political']}], 'formatted_address': 'Mokopane, South Africa', 'geometry': {'bounds': {'northeast': {'lat': -24.1334364, 'lng': 29.030005}, 'southwest': {'lat': -24.2395926, 'lng': 28.959175}}, 'location': {'lat': -24.1771775, 'lng': 29.0018985}, 'location_type': 'APPROXIMATE', 'viewport': {'northeast': {'lat': -24.1334364, 'lng': 29.030005}, 'southwest': {'lat': -24.2395926, 'lng': 28.959175}}}, 'place_id': 'ChIJ36V1cSRLxx4RI3GGbABtM4Y', 'types': ['locality', 'political']}]",-24.1771775,29.0018985
Limpopo,Groblersdal,Groblersdal,"SHOP 6 TAUTES AVENUE, GROBLERSDAL","Groblersdal, Groblersdal, Limpopo","[{'address_components': [{'long_name': 'Groblersdal', 'short_name': 'Groblersdal', 'types': ['locality', 'political']}, {'long_name': 'Groblersdal', 'short_name': 'Groblersdal', 'types': ['political', 'sublocality', 'sublocality_level_1']}, {'long_name': 'Southern', 'short_name': 'Southern', 'types': ['administrative_area_level_2', 'political']}, {'long_name': 'Limpopo', 'short_name': 'LP', 'types': ['administrative_area_level_1', 'political']}, {'long_name': 'South Africa', 'short_name': 'ZA', 'types': ['country', 'political']}, {'long_name': '0470', 'short_name': '0470', 'types': ['postal_code']}], 'formatted_address': 'Groblersdal, 0470, South Africa', 'geometry': {'bounds': {'northeast': {'lat': -25.153709, 'lng': 29.42324979999999}, 'southwest': {'lat': -25.192381, 'lng': 29.3597868}}, 'location': {'lat': -25.167361, 'lng': 29.3986919}, 'location_type': 'APPROXIMATE', 'viewport': {'northeast': {'lat': -25.153709, 'lng': 29.42324979999999}, 'southwest': {'lat': -25.192381, 'lng': 29.3597868}}}, 'place_id': 'ChIJl_gHVh41wB4RY0dnk-vS4cc', 'types': ['locality', 'political']}]",-25.167361,29.3986919
Free State,Bloemfontein,Westdene1,"Room G03, Mediclinic Bloemfontein, Kellner St, Westdene, Bloemfontein, 9301","Westdene1, Bloemfontein, Free State","[{'address_components': [{'long_name': 'Westdene', 'short_name': 'Westdene', 'types': ['political', 'sublocality', 'sublocality_level_1']}, {'long_name': 'Bloemfontein', 'short_name': 'Bloemfontein', 'types': ['locality', 'political']}, {'long_name': 'Motheo', 'short_name': 'Motheo', 'types': ['administrative_area_level_2', 'political']}, {'long_name': 'Free State', 'short_name': 'FS', 'types': ['administrative_area_level_1', 'political']}, {'long_name': 'South Africa', 'short_name': 'ZA', 'types': ['country', 'political']}, {'long_name': '9301', 'short_name': '9301', 'types': ['postal_code']}], 'formatted_address': 'Westdene, Bloemfontein, 9301, South Africa', 'geometry': {'bounds': {'northeast': {'lat': -29.097113, 'lng': 26.217152}, 'southwest': {'lat': -29.1139739, 'lng': 26.20203}}, 'location': {'lat': -29.1061008, 'lng': 26.2083121}, 'location_type': 'APPROXIMATE', 'viewport': {'northeast': {'lat': -29.097113, 'lng': 26.217152}, 'southwest': {'lat': -29.1139739, 'lng': 26.20203}}}, 'partial_match': True, 'place_id': 'ChIJk2fI8UjFjx4RgRdDiUGThos', 'types': ['political', 'sublocality', 'sublocality_level_1']}]",-29.1061008,26.2083121
Free State,Bloemfontein,Westdene2,"President Steyn 66, Westdene, Bloemfontein","Westdene2, Bloemfontein, Free State","[{'address_components': [{'long_name': 'Westdene', 'short_name': 'Westdene', 'types': ['political', 'sublocality', 'sublocality_level_1']}, {'long_name': 'Bloemfontein', 'short_name': 'Bloemfontein', 'types': ['locality', 'political']}, {'long_name': 'Motheo', 'short_name': 'Motheo', 'types': ['administrative_area_level_2', 'political']}, {'long_name': 'Free State', 'short_name': 'FS', 'types': ['administrative_area_level_1', 'political']}, {'long_name': 'South Africa', 'short_name': 'ZA', 'types': ['country', 'political']}, {'long_name': '9301', 'short_name': '9301', 'types': ['postal_code']}], 'formatted_address': 'Westdene, Bloemfontein, 9301, South Africa', 'geometry': {'bounds': {'northeast': {'lat': -29.097113, 'lng': 26.217152}, 'southwest': {'lat': -29.1139739, 'lng': 26.20203}}, 'location': {'lat': -29.1061008, 'lng': 26.2083121}, 'location_type': 'APPROXIMATE', 'viewport': {'northeast': {'lat': -29.097113, 'lng': 26.217152}, 'southwest': {'lat': -29.1139739, 'lng': 26.20203}}}, 'partial_match': True, 'place_id': 'ChIJk2fI8UjFjx4RgRdDiUGThos', 'types': ['political', 'sublocality', 'sublocality_level_1']}]",-29.1061008,26.2083121
Free State,Welkom,Welkom,"Lategan street 30, Welkom","Welkom, Welkom, Free State","[{'address_components': [{'long_name': 'Welkom', 'short_name': 'Welkom', 'types': ['locality', 'political']}, {'long_name': 'Lejweleputswa', 'short_name': 'Lejweleputswa', 'types': ['administrative_area_level_2', 'political']}, {'long_name': 'Free State', 'short_name': 'FS', 'types': ['administrative_area_level_1', 'political']}, {'long_name': 'South Africa', 'short_name': 'ZA', 'types': ['country', 'political']}], 'formatted_address': 'Welkom, South Africa', 'geometry': {'bounds': {'northeast': {'lat': -27.8881679, 'lng': 26.9152339}, 'southwest': {'lat': -28.120863, 'lng': 26.650986}}, 'location': {'lat': -28.0045655, 'lng': 26.7732162}, 'location_type': 'APPROXIMATE', 'viewport': {'northeast': {'lat': -27.8881679, 'lng': 26.9152339}, 'southwest': {'lat': -28.120863, 'lng': 26.650986}}}, 'place_id': 'ChIJg52lRroMkR4RFfgXULWcjm8', 'types': ['locality', 'political']}]",-28.0045655,26.7732162
Northern Cape,Kimberley,Kimberley,"39 Mac Dougall St, El Toro Park, Kimberley, 8301","Kimberley, Kimberley, Northern Cape","[{'address_components': [{'long_name': 'Kimberley', 'short_name': 'Kimberley', 'types': ['locality', 'political']}, {'long_name': 'Diamandveld', 'short_name': 'Diamandveld', 'types': ['administrative_area_level_2', 'political']}, {'long_name': 'Northern Cape', 'short_name': 'NC', 'types': ['administrative_area_level_1', 'political']}, {'long_name': 'South Africa', 'short_name': 'ZA', 'types': ['country', 'political']}], 'formatted_address': 'Kimberley, South Africa', 'geometry': {'bounds': {'northeast': {'lat': -28.6421968, 'lng': 24.810152}, 'southwest': {'lat': -28.80555499999999, 'lng': 24.636261}}, 'location': {'lat': -28.7282384, 'lng': 24.7499112}, 'location_type': 'APPROXIMATE', 'viewport': {'northeast': {'lat': -28.6421968, 'lng': 24.810152}, 'southwest': {'lat': -28.80555499999999, 'lng': 24.636261}}}, 'place_id': 'ChIJKXnnYtAamx4R_4nrfaMoJo8', 'types': ['locality', 'political']}]",-28.7282384,24.7499112
Mpumalanga,Delmas,Delmas,Mareu Building,"Delmas, Delmas, Mpumalanga","[{'address_components': [{'long_name': 'Delmas', 'short_name': 'Delmas', 'types': ['locality', 'political']}, {'long_name': 'Nkangala', 'short_name': 'Nkangala', 'types': ['administrative_area_level_2', 'political']}, {'long_name': 'Mpumalanga', 'short_name': 'MP', 'types': ['administrative_area_level_1', 'political']}, {'long_name': 'South Africa', 'short_name': 'ZA', 'types': ['country', 'political']}], 'formatted_address': 'Delmas, South Africa', 'geometry': {'bounds': {'northeast': {'lat': -26.0834555, 'lng': 28.7157248}, 'southwest': {'lat': -26.27547, 'lng': 28.5136299}}, 'location': {'lat': -26.1403469, 'lng': 28.6786903}, 'location_type': 'APPROXIMATE', 'viewport': {'northeast': {'lat': -26.0834555, 'lng': 28.7157248}, 'southwest': {'lat': -26.27547, 'lng': 28.5136299}}}, 'place_id': 'ChIJYZvKulPN6h4RU045RYaYBbs', 'types': ['locality', 'political']}]",-26.1403469,28.6786903
Mpumalanga,Standerton,Standerton,"Cnr Kerk & Princess, Central Park number 5, Standerton","Standerton, Standerton, Mpumalanga","[{'address_components': [{'long_name': 'Standerton', 'short_name': 'Standerton', 'types': ['locality', 'political']}, {'long_name': 'Eastvaal District Council', 'short_name': 'Eastvaal District Council', 'types': ['administrative_area_level_2', 'political']}, {'long_name': 'Mpumalanga', 'short_name': 'MP', 'types': ['administrative_area_level_1', 'political']}, {'long_name': 'South Africa', 'short_name': 'ZA', 'types': ['country', 'political']}], 'formatted_address': 'Standerton, South Africa', 'geometry': {'bounds': {'northeast': {'lat': -26.8976761, 'lng': 29.2666439}, 'southwest': {'lat': -26.99463, 'lng': 29.19358489999999}}, 'location': {'lat': -26.9438212, 'lng': 29.2204548}, 'location_type': 'APPROXIMATE', 'viewport': {'northeast': {'lat': -26.8976761, 'lng': 29.2666439}, 'southwest': {'lat': -26.99463, 'lng': 29.19358489999999}}}, 'place_id': 'ChIJE23Zccyc7B4RSfFzRKeis6s', 'types': ['locality', 'political']}]",-26.9438212,29.2204548
Mpumalanga,Ermelo,Ermelo,"18 & 19 De Jager street, Shop number 8, Pine Centre","Ermelo, Ermelo, Mpumalanga","[{'address_components': [{'long_name': 'Ermelo', 'short_name': 'Ermelo', 'types': ['political', 'sublocality', 'sublocality_level_1']}, {'long_name': 'Ermelo', 'short_name': 'Ermelo', 'types': ['locality', 'political']}, {'long_name': 'Eastvaal District Council', 'short_name': 'Eastvaal District Council', 'types': ['administrative_area_level_2', 'political']}, {'long_name': 'Mpumalanga', 'short_name': 'MP', 'types': ['administrative_area_level_1', 'political']}, {'long_name': 'South Africa', 'short_name': 'ZA', 'types': ['country', 'political']}, {'long_name': '2350', 'short_name': '2350', 'types': ['postal_code']}], 'formatted_address': 'Ermelo, 2350, South Africa', 'geometry': {'bounds': {'northeast': {'lat': -26.493877, 'lng': 30.0115501}, 'southwest': {'lat': -26.5622119, 'lng': 29.961018}}, 'location': {'lat': -26.527048, 'lng': 29.9913964}, 'location_type': 'APPROXIMATE', 'viewport': {'northeast': {'lat': -26.493877, 'lng': 30.0115501}, 'southwest': {'lat': -26.5622119, 'lng': 29.961018}}}, 'place_id': 'ChIJw_uyLDnl6x4Ra9SRxMG5JR8', 'types': ['political', 'sublocality', 'sublocality_level_1']}]",-26.527048,29.9913964
Mpumalanga,Kriel,Kriel,C/O BOKMAKIERIE & MOOILAAN,"Kriel, Kriel, Mpumalanga","[{'address_components': [{'long_name': 'Kriel', 'short_name': 'Kriel', 'types': ['locality', 'political']}, {'long_name': 'Nkangala', 'short_name': 'Nkangala', 'types': ['administrative_area_level_2', 'political']}, {'long_name': 'Mpumalanga', 'short_name': 'MP', 'types': ['administrative_area_level_1', 'political']}, {'long_name': 'South Africa', 'short_name': 'ZA', 'types': ['country', 'political']}], 'formatted_address': 'Kriel, South Africa', 'geometry': {'bounds': {'northeast': {'lat': -26.1926989, 'lng': 29.3034489}, 'southwest': {'lat': -26.3197329, 'lng': 29.2351669}}, 'location': {'lat': -26.2551061, 'lng': 29.2633978}, 'location_type': 'APPROXIMATE', 'viewport': {'northeast': {'lat': -26.1926989, 'lng': 29.3034489}, 'southwest': {'lat': -26.3197329, 'lng': 29.2351669}}}, 'place_id': 'ChIJ_xM9KQ0D6x4Rk776dbcEJN4', 'types': ['locality', 'political']}]",-26.2551061,29.2633978
Mpumalanga,Trichardt,Trichardt,"2nd floor room 210 Barney Molokwane Street, Trichardt","Trichardt, Trichardt, Mpumalanga","[{'address_components': [{'long_name': 'Trichardt', 'short_name': 'Trichardt', 'types': ['locality', 'political']}, {'long_name': 'Trichardt', 'short_name': 'Trichardt', 'types': ['political', 'sublocality', 'sublocality_level_1']}, {'long_name': 'Eastvaal District Council', 'short_name': 'Eastvaal District Council', 'types': ['administrative_area_level_2', 'political']}, {'long_name': 'Mpumalanga', 'short_name': 'MP', 'types': ['administrative_area_level_1', 'political']}, {'long_name': 'South Africa', 'short_name': 'ZA', 'types': ['country', 'political']}, {'long_name': '2300', 'short_name': '2300', 'types': ['postal_code']}], 'formatted_address': 'Trichardt, 2300, South Africa', 'geometry': {'bounds': {'northeast': {'lat': -26.472813, 'lng': 29.2370718}, 'southwest': {'lat': -26.5007269, 'lng': 29.209727}}, 'location': {'lat': -26.4844792, 'lng': 29.2233608}, 'location_type': 'APPROXIMATE', 'viewport': {'northeast': {'lat': -26.472813, 'lng': 29.2370718}, 'southwest': {'lat': -26.5007269, 'lng': 29.209727}}}, 'place_id': 'ChIJhdQWPIgN6x4RGi2cyvtcp4E', 'types': ['locality', 'political']}]",-26.4844792,29.2233608
North West,Potchefstrom,Potchefstrom,"Shop 24 Cnr Steve Biko & Meyer Street, Potchefstroom, 2531 ","Potchefstrom, Potchefstrom, North West","[{'address_components': [{'long_name': 'Potchefstroom', 'short_name': 'Potchefstroom', 'types': ['political', 'sublocality', 'sublocality_level_1']}, {'long_name': 'Potchefstroom', 'short_name': 'Potchefstroom', 'types': ['locality', 'political']}, {'long_name': 'Southern DC', 'short_name': 'Southern DC', 'types': ['administrative_area_level_2', 'political']}, {'long_name': 'North West', 'short_name': 'NW', 'types': ['administrative_area_level_1', 'political']}, {'long_name': 'South Africa', 'short_name': 'ZA', 'types': ['country', 'political']}, {'long_name': '2520', 'short_name': '2520', 'types': ['postal_code']}], 'formatted_address': 'Potchefstroom, 2520, South Africa', 'geometry': {'bounds': {'northeast': {'lat': -26.6624699, 'lng': 27.1222881}, 'southwest': {'lat': -26.7461851, 'lng': 27.071739}}, 'location': {'lat': -26.7145268, 'lng': 27.0970622}, 'location_type': 'APPROXIMATE', 'viewport': {'northeast': {'lat': -26.6624699, 'lng': 27.1222881}, 'southwest': {'lat': -26.7461851, 'lng': 27.071739}}}, 'partial_match': True, 'place_id': 'ChIJkyobXSGBlh4R8L3d7YqY6nA', 'types': ['political', 'sublocality', 'sublocality_level_1']}]",-26.7145268,27.0970622
North West,Rustenburg,Rustenburg,"102 Kock Street, Rustenburg, 2999","Rustenburg, Rustenburg, North West","[{'address_components': [{'long_name': 'Rustenburg', 'short_name': 'Rustenburg', 'types': ['locality', 'political']}, {'long_name': 'Bojanala', 'short_name': 'Bojanala', 'types': ['administrative_area_level_2', 'political']}, {'long_name': 'North West', 'short_name': 'NW', 'types': ['administrative_area_level_1', 'political']}, {'long_name': 'South Africa', 'short_name': 'ZA', 'types': ['country', 'political']}], 'formatted_address': 'Rustenburg, South Africa', 'geometry': {'bounds': {'northeast': {'lat': -25.5796369, 'lng': 27.330641}, 'southwest': {'lat': -25.7182641, 'lng': 27.1764329}}, 'location': {'lat': -25.6544483, 'lng': 27.255854}, 'location_type': 'APPROXIMATE', 'viewport': {'northeast': {'lat': -25.5796369, 'lng': 27.330641}, 'southwest': {'lat': -25.7182641, 'lng': 27.1764329}}}, 'place_id': 'ChIJlcqNcfsLvh4R3Ltu2Z06Oyo', 'types': ['locality', 'political']}]",-25.6544483,27.255854
North West,Brits,Brits,"Shop 19 Safari Ctr, Van Velden St, Brits","Brits, Brits, North West","[{'address_components': [{'long_name': 'Brits', 'short_name': 'Brits', 'types': ['locality', 'political']}, {'long_name': 'Bojanala', 'short_name': 'Bojanala', 'types': ['administrative_area_level_2', 'political']}, {'long_name': 'North West', 'short_name': 'NW', 'types': ['administrative_area_level_1', 'political']}, {'long_name': 'South Africa', 'short_name': 'ZA', 'types': ['country', 'political']}], 'formatted_address': 'Brits, South Africa', 'geometry': {'bounds': {'northeast': {'lat': -25.4477689, 'lng': 27.909437}, 'southwest': {'lat': -25.653927, 'lng': 27.760119}}, 'location': {'lat': -25.6099895, 'lng': 27.7959713}, 'location_type': 'APPROXIMATE', 'viewport': {'northeast': {'lat': -25.4477689, 'lng': 27.909437}, 'southwest': {'lat': -25.653927, 'lng': 27.760119}}}, 'place_id': 'ChIJq57wMv4zvh4RfuRmZE9m-zQ', 'types': ['locality', 'political']}]",-25.6099895,27.7959713
North West,Ifafi,Ifafi,Corner R511 and Beethoven Street ,"Ifafi, Ifafi, North West","[{'address_components': [{'long_name': 'Ifafi', 'short_name': 'Ifafi', 'types': ['political', 'sublocality', 'sublocality_level_1']}, {'long_name': 'Hartbeespoort', 'short_name': 'Hartbeespoort', 'types': ['locality', 'political']}, {'long_name': 'Bojanala', 'short_name': 'Bojanala', 'types': ['administrative_area_level_2', 'political']}, {'long_name': 'North West', 'short_name': 'NW', 'types': ['administrative_area_level_1', 'political']}, {'long_name': 'South Africa', 'short_name': 'ZA', 'types': ['country', 'political']}, {'long_name': '0260', 'short_name': '0260', 'types': ['postal_code']}], 'formatted_address': 'Ifafi, Hartbeespoort, 0260, South Africa', 'geometry': {'bounds': {'northeast': {'lat': -25.7408368, 'lng': 27.910442}, 'southwest': {'lat': -25.7502839, 'lng': 27.8888509}}, 'location': {'lat': -25.7446961, 'lng': 27.9000006}, 'location_type': 'APPROXIMATE', 'viewport': {'northeast': {'lat': -25.7408368, 'lng': 27.910442}, 'southwest': {'lat': -25.7502839, 'lng': 27.8888509}}}, 'place_id': 'ChIJt6onNx8rvh4RQeaN9f5oEW4', 'types': ['political', 'sublocality', 'sublocality_level_1']}]",-25.7446961,27.9000006
North West,Potchefstrom,Potchefstrom,"Shop 24 The Islands Shopping Mall, Provincial road R512","Potchefstrom, Potchefstrom, North West","[{'address_components': [{'long_name': 'Potchefstroom', 'short_name': 'Potchefstroom', 'types': ['political', 'sublocality', 'sublocality_level_1']}, {'long_name': 'Potchefstroom', 'short_name': 'Potchefstroom', 'types': ['locality', 'political']}, {'long_name': 'Southern DC', 'short_name': 'Southern DC', 'types': ['administrative_area_level_2', 'political']}, {'long_name': 'North West', 'short_name': 'NW', 'types': ['administrative_area_level_1', 'political']}, {'long_name': 'South Africa', 'short_name': 'ZA', 'types': ['country', 'political']}, {'long_name': '2520', 'short_name': '2520', 'types': ['postal_code']}], 'formatted_address': 'Potchefstroom, 2520, South Africa', 'geometry': {'bounds': {'northeast': {'lat': -26.6624699, 'lng': 27.1222881}, 'southwest': {'lat': -26.7461851, 'lng': 27.071739}}, 'location': {'lat': -26.7145268, 'lng': 27.0970622}, 'location_type': 'APPROXIMATE', 'viewport': {'northeast': {'lat': -26.6624699, 'lng': 27.1222881}, 'southwest': {'lat': -26.7461851, 'lng': 27.071739}}}, 'partial_match': True, 'place_id': 'ChIJkyobXSGBlh4R8L3d7YqY6nA', 'types': ['political', 'sublocality', 'sublocality_level_1']}]",-26.7145268,27.0970622
Kwa-Zulu Natal,Durban,Umhlanga,1d Umhlanga Ridge Blvd,"Umhlanga, Durban, Kwa-Zulu Natal","[{'address_components': [{'long_name': 'Umhlanga', 'short_name': 'Umhlanga', 'types': ['locality', 'political']}, {'long_name': 'Durban Metro', 'short_name': 'Durban Metro', 'types': ['administrative_area_level_2', 'political']}, {'long_name': 'KwaZulu-Natal', 'short_name': 'KZN', 'types': ['administrative_area_level_1', 'political']}, {'long_name': 'South Africa', 'short_name': 'ZA', 'types': ['country', 'political']}], 'formatted_address': 'Umhlanga, South Africa', 'geometry': {'bounds': {'northeast': {'lat': -29.708395, 'lng': 31.094157}, 'southwest': {'lat': -29.7607358, 'lng': 31.035287}}, 'location': {'lat': -29.7330347, 'lng': 31.0592806}, 'location_type': 'APPROXIMATE', 'viewport': {'northeast': {'lat': -29.708395, 'lng': 31.094157}, 'southwest': {'lat': -29.7607358, 'lng': 31.035287}}}, 'place_id': 'ChIJ16rna5MF9x4RkqR_0XnIlVY', 'types': ['locality', 'political']}]",-29.7330347,31.0592806
Kwa-Zulu Natal,Durban,Greyville,"33/34 Victor Lane, Greyville, Durban","Greyville, Durban, Kwa-Zulu Natal","[{'address_components': [{'long_name': 'Greyville', 'short_name': 'Greyville', 'types': ['political', 'sublocality', 'sublocality_level_1']}, {'long_name': 'Berea', 'short_name': 'Berea', 'types': ['locality', 'political']}, {'long_name': 'Durban Metro', 'short_name': 'Durban Metro', 'types': ['administrative_area_level_2', 'political']}, {'long_name': 'KwaZulu-Natal', 'short_name': 'KZN', 'types': ['administrative_area_level_1', 'political']}, {'long_name': 'South Africa', 'short_name': 'ZA', 'types': ['country', 'political']}, {'long_name': '4001', 'short_name': '4001', 'types': ['postal_code']}], 'formatted_address': 'Greyville, Berea, 4001, South Africa', 'geometry': {'bounds': {'northeast': {'lat': -29.8315848, 'lng': 31.025122}, 'southwest': {'lat': -29.8645399, 'lng': 31.0050859}}, 'location': {'lat': -29.8475714, 'lng': 31.0148742}, 'location_type': 'APPROXIMATE', 'viewport': {'northeast': {'lat': -29.8315848, 'lng': 31.025122}, 'southwest': {'lat': -29.8645399, 'lng': 31.0050859}}}, 'place_id': 'ChIJQcr2uN2p9x4R_pVW5sXCJbE', 'types': ['political', 'sublocality', 'sublocality_level_1']}]",-29.8475714,31.0148742
Kwa-Zulu Natal,Pietermaritzbrug,Pietermaritzbrug,"Suite 205 Midlands Medical Centre, 162-166 Masukwana St, Pietermaritzburg, 3201","Pietermaritzbrug, Pietermaritzbrug, Kwa-Zulu Natal","[{'address_components': [{'long_name': 'Pietermaritzburg', 'short_name': 'PMB', 'types': ['locality', 'political']}, {'long_name': 'Indlovu DC', 'short_name': 'Indlovu DC', 'types': ['administrative_area_level_2', 'political']}, {'long_name': 'KwaZulu-Natal', 'short_name': 'KZN', 'types': ['administrative_area_level_1', 'political']}, {'long_name': 'South Africa', 'short_name': 'ZA', 'types': ['country', 'political']}], 'formatted_address': 'Pietermaritzburg, South Africa', 'geometry': {'bounds': {'northeast': {'lat': -29.5328008, 'lng': 30.4498899}, 'southwest': {'lat': -29.7277701, 'lng': 30.2520681}}, 'location': {'lat': -29.6006068, 'lng': 30.3794118}, 'location_type': 'APPROXIMATE', 'viewport': {'northeast': {'lat': -29.5328008, 'lng': 30.4498899}, 'southwest': {'lat': -29.7277701, 'lng': 30.2520681}}}, 'place_id': 'ChIJMwKXmti99h4RzXCr0febEtg', 'types': ['locality', 'political']}]",-29.6006068,30.3794118
Kwa-Zulu Natal,Hilton,Hilton Gardens,"Hilton Gardens, Hilton, 3245","Hilton Gardens, Hilton, Kwa-Zulu Natal","[{'address_components': [{'long_name': 'Hilton Gardens', 'short_name': 'Hilton Gardens', 'types': ['political', 'sublocality', 'sublocality_level_1']}, {'long_name': 'Hilton', 'short_name': 'Hilton', 'types': ['locality', 'political']}, {'long_name': 'Indlovu DC', 'short_name': 'Indlovu DC', 'types': ['administrative_area_level_2', 'political']}, {'long_name': 'KwaZulu-Natal', 'short_name': 'KZN', 'types': ['administrative_area_level_1', 'political']}, {'long_name': 'South Africa', 'short_name': 'ZA', 'types': ['country', 'political']}, {'long_name': '3201', 'short_name': '3201', 'types': ['postal_code']}], 'formatted_address': 'Hilton Gardens, Hilton, 3201, South Africa', 'geometry': {'bounds': {'northeast': {'lat': -29.5353998, 'lng': 30.3133859}, 'southwest': {'lat': -29.5465979, 'lng': 30.2953969}}, 'location': {'lat': -29.5421422, 'lng': 30.3046289}, 'location_type': 'APPROXIMATE', 'viewport': {'northeast': {'lat': -29.5353998, 'lng': 30.3133859}, 'southwest': {'lat': -29.5465979, 'lng': 30.2953969}}}, 'place_id': 'ChIJg1w6SBul9h4R7GpmrX7H7eI', 'types': ['political', 'sublocality', 'sublocality_level_1']}]",-29.5421422,30.3046289
